{
  "city": "gadchiroli",
  "source": "OpenStreetMap POI data (2026) + district emergency references",
  "policeStations": [
    {
      "id": "gadchiroli-sp",
      "name": "Superintendent of Police Office, Gadchiroli",
      "lat": 20.19,
      "lng": 80.01,
      "address": "SP Office Road, Gadchiroli Town",
      "phone": "07132-222215",
      "type": "headquarters"
    },
    {
      "id": "gadchiroli-town-ps",
      "name": "Gadchiroli Town Police Station",
      "lat": 20.183,
      "lng": 80.005,
      "address": "Main Road, Gadchiroli",
      "phone": "07132-222218",
      "type": "town"
    },
    {
      "id": "desaiganj-ps",
      "name": "Desaiganj (Wadsa) Police Station",
      "lat": 20.525,
      "lng": 79.98,
      "address": "Desaiganj Town, Wadsa",
      "phone": "07138-272218",
      "type": "town"
    },
    {
      "id": "armori-ps",
      "name": "Armori Police Station",
      "lat": 20.476,
      "lng": 80.03,
      "address": "Armori Town, Gadchiroli District",
      "phone": "07138-252218",
      "type": "town"
    },
    {
      "id": "chamorshi-ps",
      "name": "Chamorshi Police Station",
      "lat": 19.9445772,
      "lng": 79.8913349,
      "address": "Chamorshi, Gadchiroli",
      "phone": "07132-285218",
      "type": "rural"
    },
    {
      "id": "aheri-ps",
      "name": "Aheri Police Station",
      "lat": 19.41481,
      "lng": 80.003785,
      "address": "Aheri Town, Gadchiroli",
      "phone": "07133-242218",
      "type": "sensitive"
    },
    {
      "id": "etapalli-ps",
      "name": "Etapalli Police Station",
      "lat": 19.52,
      "lng": 80.08,
      "address": "Etapalli, Gadchiroli",
      "phone": "07133-275218",
      "type": "sensitive"
    },
    {
      "id": "bhamragad-ps",
      "name": "Bhamragad Police Station",
      "lat": 19.505,
      "lng": 80.35,
      "address": "Bhamragad, Gadchiroli",
      "phone": "07133-288218",
      "type": "sensitive"
    },
    {
      "id": "sironcha-ps",
      "name": "Sironcha Police Station",
      "lat": 18.85,
      "lng": 79.98,
      "address": "Sironcha, Gadchiroli",
      "phone": "07133-265218",
      "type": "sensitive"
    },
    {
      "id": "allapalli-ps",
      "name": "Allapalli Police Station",
      "lat": 19.431903,
      "lng": 80.060227,
      "address": "Allapalli, Aheri Taluka",
      "phone": "07133-244218",
      "type": "sensitive"
    },
    {
      "id": "ghot-ps",
      "name": "Police Station, Ghot",
      "lat": 19.8154956,
      "lng": 79.9847023,
      "address": "Ghot, Gadchiroli District",
      "phone": "07132-273218",
      "type": "rural"
    },
    {
      "id": "korchi-ps",
      "name": "Korchi Police Station",
      "lat": 19.98,
      "lng": 79.55,
      "address": "Korchi, Gadchiroli",
      "phone": "07132-278218",
      "type": "rural"
    },
    {
      "id": "kurkheda-ps",
      "name": "Kurkheda Police Station",
      "lat": 20.2,
      "lng": 79.7,
      "address": "Kurkheda, Gadchiroli",
      "phone": "07132-268218",
      "type": "rural"
    },
    {
      "id": "mulchera-ps",
      "name": "Mulchera Police Station",
      "lat": 20.35,
      "lng": 80.2,
      "address": "Mulchera, Gadchiroli",
      "phone": "07132-295218",
      "type": "rural"
    },
    {
      "id": "dhanora-ps",
      "name": "Dhanora Police Station",
      "lat": 20.32,
      "lng": 80.12,
      "address": "Dhanora, Gadchiroli",
      "phone": "07132-292218",
      "type": "rural"
    }
  ],
  "hospitals": [
    {
      "id": "district-hospital-gadchiroli",
      "name": "District General Hospital, Gadchiroli",
      "lat": 20.18,
      "lng": 80.0,
      "address": "Civil Lines, Gadchiroli",
      "phone": "07132-222501",
      "beds": 200,
      "emergency": true,
      "type": "district"
    },
    {
      "id": "lokbiradari-hemalkasa",
      "name": "Lokbiradari Multispeciality Hospital, Hemalkasa",
      "lat": 19.4242869,
      "lng": 80.5653456,
      "address": "Hemalkasa, Bhamragad Taluka",
      "phone": "07133-270066",
      "beds": 80,
      "emergency": true,
      "type": "tribal"
    },
    {
      "id": "rural-hospital-etapalli",
      "name": "Rural Hospital Etapalli",
      "lat": 19.602676,
      "lng": 80.229383,
      "address": "Etapalli, Gadchiroli",
      "phone": "07133-275501",
      "beds": 30,
      "emergency": true,
      "type": "rural"
    },
    {
      "id": "rural-hospital-sironcha",
      "name": "Rural Hospital, Sironcha",
      "lat": 18.8488143,
      "lng": 79.964452,
      "address": "Sironcha, Gadchiroli",
      "phone": "07133-265501",
      "beds": 30,
      "emergency": true,
      "type": "rural"
    },
    {
      "id": "sdh-aheri",
      "name": "Sub District Hospital Aheri",
      "lat": 19.41481,
      "lng": 80.0037854,
      "address": "Aheri, Gadchiroli",
      "phone": "07133-242501",
      "beds": 50,
      "emergency": true,
      "type": "sub-district"
    },
    {
      "id": "rural-hospital-dhanora",
      "name": "Rural Hospital, Dhanora",
      "lat": 20.274865,
      "lng": 80.310896,
      "address": "Dhanora, Gadchiroli",
      "phone": "07132-292501",
      "beds": 30,
      "emergency": true,
      "type": "rural"
    },
    {
      "id": "rural-hospital-korchi",
      "name": "Rural Hospital, Korchi",
      "lat": 20.721105,
      "lng": 80.481277,
      "address": "Korchi, Gadchiroli",
      "phone": "07132-278501",
      "beds": 25,
      "emergency": true,
      "type": "rural"
    },
    {
      "id": "sdh-armori",
      "name": "Sub District Hospital Armori",
      "lat": 20.4697606,
      "lng": 79.985509,
      "address": "Armori, Gadchiroli",
      "phone": "07138-252501",
      "beds": 50,
      "emergency": true,
      "type": "sub-district"
    },
    {
      "id": "rural-hospital-wadsa",
      "name": "Rural Hospital Wadsa",
      "lat": 20.6143798,
      "lng": 79.9635346,
      "address": "Desaiganj (Wadsa)",
      "phone": "07138-272501",
      "beds": 40,
      "emergency": true,
      "type": "rural"
    },
    {
      "id": "general-hospital-chamorshi",
      "name": "General Hospital, Chamorshi",
      "lat": 19.8702455,
      "lng": 80.003132,
      "address": "Chamorshi, Gadchiroli",
      "phone": "07132-285501",
      "beds": 25,
      "emergency": true,
      "type": "general"
    },
    {
      "id": "assisi-sevasadan-allapalli",
      "name": "Assisi Sevasadan Hospital, Allapalli",
      "lat": 19.4335478,
      "lng": 80.049295,
      "address": "Allapalli, Aheri Taluka",
      "phone": "07133-244501",
      "beds": 40,
      "emergency": true,
      "type": "mission"
    },
    {
      "id": "sironcha-mission-hospital",
      "name": "Sironcha Mission Hospital",
      "lat": 18.847475,
      "lng": 79.961826,
      "address": "Sironcha, Gadchiroli",
      "phone": "07133-265650",
      "beds": 20,
      "emergency": true,
      "type": "mission"
    }
  ]
}
